{
  "type": "FeatureCollection",
  "features": [
    {
      "type": "Feature",
      "id": 1,
      "properties": {
        "name": "March On For Voting Rights - WA State Virtual March",
        "eventDate": "8/28/2021",
        "timestamp": "2021-08-28T12:00:00Z",
        "eventLink": "https://us02web.zoom.us/webinar/register/WN_4VueHrT5RNaIlq3qGBNrgw",
        "location": "909 First Ave, Seattle, WA 98104",
        "state": "WA",
        "city": "Seattle",
        "zipCode": "98104",
        "flagship": false,
        "virtual": true
      },
      "geometry": {
        "type": "Point",
        "coordinates": [
          -122.331537,
          47.673455
        ]
      }
    },
    {
      "type": "Feature",
      "id": 2,
      "properties": {
        "name": "March On For Voting Rights California ",
        "eventDate": "8/28/2021",
        "timestamp": "2021-08-28T09:00:00Z",
        "eventLink": "https://actionnetwork.org/events/march-on-for-voting-rights-california",
        "location": "1315 10th Street, Sacramento, CA 95814",
        "state": "CA",
        "city": "Sacramento",
        "zipCode": "95814",
        "flagship": false,
        "virtual": false
      },
      "geometry": {
        "type": "Point",
        "coordinates": [
          -121.493243,
          38.576513
        ]
      }
    },
    {
      "type": "Feature",
      "id": 3,
      "properties": {
        "name": "March On For Voting Rights Tampa Bay",
        "eventDate": "8/28/2021",
        "timestamp": "2021-08-28T12:00:00Z",
        "eventLink": "https://actionnetwork.org/events/march-on-for-voting-rights-tampa-bay",
        "location": "175 5th St N, St. Petersburg, FL 33701",
        "state": "FL",
        "city": "St. Petersburg",
        "zipCode": "33701",
        "flagship": false,
        "virtual": false
      },
      "geometry": {
        "type": "Point",
        "coordinates": [
          -82.639826,
          27.773157
        ]
      }
    },
    {
      "type": "Feature",
      "id": 4,
      "properties": {
        "name": "March On for Voting Rights Houston",
        "eventDate": "8/28/2021",
        "timestamp": "2021-08-28T12:00:00Z",
        "eventLink": "https://actionnetwork.org/events/march-on-for-voting-rights-houston",
        "location": "901 Bagby St, Houston, TX 77002",
        "state": "TX",
        "city": "Houston",
        "zipCode": "77002",
        "flagship": true,
        "virtual": false
      },
      "geometry": {
        "type": "Point",
        "coordinates": [
          -95.369379,
          29.760179
        ]
      }
    },
    {
      "type": "Feature",
      "id": 5,
      "properties": {
        "name": "March On for Voting Rights Phoenix",
        "eventDate": "8/28/2021",
        "timestamp": "2021-08-28T09:00:00Z",
        "eventLink": "https://actionnetwork.org/events/march-on-for-voting-rights-phoenix",
        "location": "1401 E Jefferson Street, Phoenix, AZ 85034",
        "state": "AZ",
        "city": "Phoenix",
        "zipCode": "85034",
        "flagship": true,
        "virtual": false
      },
      "geometry": {
        "type": "Point",
        "coordinates": [
          -112.050991,
          33.446361
        ]
      }
    },
    {
      "type": "Feature",
      "id": 6,
      "properties": {
        "name": "March On for Voting Rights Miami",
        "eventDate": "8/28/2021",
        "timestamp": "2021-08-28T12:00:00Z",
        "eventLink": "https://actionnetwork.org/events/march-on-for-voting-rights-miami",
        "location": "3500 Pan American Dr, Miami, FL 33133",
        "state": "FL",
        "city": "Miami",
        "zipCode": "33133",
        "flagship": true,
        "virtual": false
      },
      "geometry": {
        "type": "Point",
        "coordinates": [
          -80.233779,
          25.727684
        ]
      }
    },
    {
      "type": "Feature",
      "id": 7,
      "properties": {
        "name": "March On for Voting Rights Atlanta",
        "eventDate": "8/28/2021",
        "timestamp": "2021-08-28T12:00:00Z",
        "eventLink": "https://actionnetwork.org/events/mo4vr-atl",
        "location": "265 Park Ave W NW, Atlanta, GA 30313",
        "state": "GA",
        "city": "Atlanta",
        "zipCode": "30313",
        "flagship": true,
        "virtual": false
      },
      "geometry": {
        "type": "Point",
        "coordinates": [
          -84.393097,
          33.758281
        ]
      }
    },
    {
      "type": "Feature",
      "id": 8,
      "properties": {
        "name": "March On for Voting Rights DC",
        "eventDate": "8/28/2021",
        "timestamp": "2021-08-28T12:00:00Z",
        "eventLink": "https://actionnetwork.org/events/mo4vr-dc",
        "location": "451 Indiana Ave NW, Washington, DC 20001",
        "state": "DC",
        "city": "Washington",
        "zipCode": "20001",
        "flagship": true,
        "virtual": false
      },
      "geometry": {
        "type": "Point",
        "coordinates": [
          -77.01756,
          38.895443
        ]
      }
    }
  ]
}